{
  "longitude" : -121.454718681892,
  "name" : "Coastal Trail Runs",
  "longitude_delta" : 3.945757294135177,
  "latitude_delta" : 3.6966384864518673,
  "placemarks" : [
    {
      "name" : "Ruth Anderson Memorial Endurance Run",
      "latitude" : 37.7285927,
      "longitude" : -122.4928863,
      "notes" : "",
      "address" : "Lake Merced Blvd and Sunset Blvd, San Francisco, CA 94132, United States"
    },
    {
      "address" : "985 Hellyer Ave, San Jose, CA  95111, United States",
      "longitude" : -121.810949,
      "notes" : "",
      "name" : "New Year's One Day",
      "latitude" : 37.2854467
    },
    {
      "address" : "1100 Kings Mountain Rd, Woodside, CA  94062, United States",
      "longitude" : -122.2918451,
      "name" : "Crystal Springs Trail Run",
      "notes" : "",
      "latitude" : 37.4404776
    },
    {
      "longitude" : -122.1043544,
      "notes" : "",
      "name" : "Lake Chabot Trail Run",
      "address" : "17600 Lake Chabot Rd, Oakland, CA  94546, United States",
      "latitude" : 37.717273
    },
    {
      "longitude" : -121.9411029,
      "notes" : "",
      "name" : "Diablo Train Run",
      "latitude" : 37.9215878,
      "address" : "96 Mitchell Canyon Road, Clayton, CA  94517, United States"
    },
    {
      "latitude" : 37.5791013,
      "notes" : "",
      "longitude" : -122.0076939,
      "address" : "2100 Isherwood Way, Fremont, CA  94536, United States",
      "name" : "ZombieRunner Quarry Lakes"
    },
    {
      "name" : "Spooners Cove Trail Run",
      "longitude" : -120.8805599,
      "notes" : "",
      "latitude" : 35.2835182,
      "address" : "3550 Pecho Valley Rd, Los Osos, CA  93402, United States"
    },
    {
      "address" : "10000 Skyline Blvd, Oakland, CA 94619, United States",
      "latitude" : 37.8189988,
      "longitude" : -122.1811322,
      "notes" : "",
      "name" : "Redwood (Summer) Trail Run"
    }
  ],
  "latitude" : 36.98293238917178
}
