{
  "name" : "Inside Trail",
  "latitude_delta" : 2.357473933889999,
  "latitude" : 38.11758355896782,
  "opacity" : 1,
  "blue" : 0.95686274766922,
  "green" : 0.37254902720451355,
  "red" : 0.1568625271320343,
  "symbol" : "figure.walk",
  "longitude" : -121.85047436460434,
  "placemarks" : [
    {
      "address" : "800 N San Pedro Rd, San Rafael, CA  94903, United States",
      "name" : "Peacock Gap Trail Run",
      "notes" : "",
      "event_date" : 482323440,
      "longitude" : -122.4956098,
      "latitude" : 38.0091009
    },
    {
      "notes" : "",
      "latitude" : 37.901196,
      "event_date" : 482323440,
      "name" : "Berkeley Trail Adenture",
      "longitude" : -122.249985,
      "address" : "2501 Grizzly Peak Blvd, Orinda, CA  94563, United States"
    },
    {
      "address" : "Mitchell Rd, Sausalito, CA  94965, United States",
      "event_date" : 744443280,
      "longitude" : -122.53519585625268,
      "name" : "Rodeo Valley",
      "notes" : "",
      "latitude" : 37.831567864522356
    },
    {
      "longitude" : -121.06869,
      "name" : "Folsom Lake",
      "event_date" : 736581120,
      "address" : "El Dorado Hills, CA 95762, United States",
      "notes" : "",
      "latitude" : 38.72914
    },
    {
      "notes" : "",
      "longitude" : -122.6410728,
      "event_date" : 482323440,
      "address" : "3545 CA-1, Stinson Beach, CA  94970, United States",
      "name" : "Muir Woods Mountain Challenge",
      "latitude" : 37.8986196
    },
    {
      "name" : "Oakland Hills",
      "latitude" : 37.8200912,
      "longitude" : -122.1880497,
      "notes" : "",
      "event_date" : 482323440,
      "address" : "9725 Skyline Blvd, Oakland, CA  94611, United States"
    },
    {
      "address" : "W Camp St & Watkins Gate Rd, Salinas, CA  93908, United States",
      "latitude" : 36.6509175,
      "event_date" : 482323440,
      "name" : "Golden State",
      "notes" : "",
      "longitude" : -121.7413079
    },
    {
      "longitude" : -122.6410728,
      "notes" : "",
      "latitude" : 37.8986196,
      "event_date" : 482323440,
      "address" : "3545 CA-1, Stinson Beach, CA  94970, United States",
      "name" : "Mt Tam Trail Run"
    },
    {
      "notes" : "",
      "longitude" : -122.0648034,
      "event_date" : 482323440,
      "address" : "101 Big Trees Park Rd, Felton, CA  95018, United States",
      "name" : "Santa Cruz",
      "latitude" : 37.0416451
    },
    {
      "address" : "500 Old San Pablo Dam Rd, El Sobrante, CA  94803, United States",
      "longitude" : -122.2633723,
      "notes" : "",
      "name" : "Reseroir Dogs",
      "latitude" : 37.9418416,
      "event_date" : 482323440
    }
  ],
  "longitude_delta" : 2.59798700786277
}
